{"type":"FeatureCollection","features":[{"type":"Feature","properties":{"Name":"TODA Intersection"},"geometry":{"coordinates":[125.485773726101,7.08421482107147],"type":"Point"}},{"type":"Feature","properties":{"Name":"EBL Dorm"},"geometry":{"coordinates":[125.48517472947037,7.08422324853197],"type":"Point"}},{"type":"Feature","properties":{"Name":"Rotunda 3"},"geometry":{"coordinates":[125.48537237296449,7.085550308309095],"type":"Point"}},{"type":"Feature","properties":{"Name":"Rotunda 1"},"geometry":{"coordinates":[125.48556110333175,7.0859189146072765],"type":"Point"}},{"type":"Feature","properties":{"Name":"Campus Pathways"},"geometry":{"coordinates":[[[125.4712780775547,7.086243460461333],[125.47176049378822,7.086374291148488]],[[125.47176049378822,7.086374291148488],[125.47223593601561,7.086370758343556],[125.47224169657528,7.084627344962769]],[[125.47224169657528,7.084627344962769],[125.47223347082996,7.084133200960139]],[[125.47224169657528,7.084627344962769],[125.4777001458267,7.084427700370682]],[[125.4777001458267,7.084427700370682],[125.47930172475401,7.084393290441412]],[[125.47930172475401,7.084393290441412],[125.48011096612078,7.084367750188733]],[[125.48011096612078,7.084367750188733],[125.4801442711685,7.085320895749824],[125.4801666779396,7.085800297717224],[125.48016785777861,7.0860456865977195],[125.48024923020452,7.086245592317596],[125.48051688934652,7.086388276886137],[125.48079601150268,7.0864456621097744],[125.48137998981645,7.086523257810086]],[[125.48137998981645,7.086523257810086],[125.48288739880229,7.086745470810392],[125.48364970419232,7.0867924964232465],[125.48435171061033,7.086779707231997]],[[125.48435171061033,7.086779707231997],[125.4847474016317,7.0867222500594025],[125.48490935764627,7.086680656787674],[125.48505411606135,7.086593597096822],[125.48515139856872,7.086470903136213],[125.48520288353336,7.086359572901834],[125.48523690566878,7.08611416572559]],[[125.48523690566878,7.08611416572559],[125.48513743253437,7.086060759980494],[125.4850436660563,7.085967568659193],[125.48501585090207,7.085846464243264],[125.4850395789772,7.085730473401242]],[[125.48011096612078,7.084367750188733],[125.4839409744963,7.0842665908992615]],[[125.4839409744963,7.0842665908992615],[125.48394344901857,7.084820580782321]],[[125.4839409744963,7.0842665908992615],[125.48517472947037,7.08422324853197]],[[125.4850395789772,7.085730473401242],[125.48508986678156,7.085647188001584],[125.4851551990686,7.0855750968622075],[125.48526566463714,7.085542183854901],[125.48537237296449,7.085550308309095]],[[125.48537237296449,7.085550308309095],[125.48548254697788,7.085602347569161],[125.48555512420765,7.085702890560107],[125.48559572748947,7.085795971989487],[125.48556110333175,7.0859189146072765]],[[125.48556110333175,7.0859189146072765],[125.48551674894222,7.085997603631608],[125.48543100542298,7.086080026853857],[125.48523690566878,7.08611416572559]],[[125.48537237296449,7.085550308309095],[125.4855541599054,7.085001809016092]],[[125.4855541599054,7.085001809016092],[125.48567311355885,7.084601488659729],[125.485773726101,7.08421482107147]],[[125.485773726101,7.08421482107147],[125.48517472947037,7.08422324853197]],[[125.4866402799002,7.084769332944106],[125.48657388209344,7.084190400467058],[125.485773726101,7.08421482107147]],[[125.4866402799002,7.084769332944106],[125.48681967112512,7.086166795948252],[125.48656802623287,7.08620638777157],[125.4863058224923,7.086100143630073],[125.48556110333175,7.0859189146072765]]],"type":"MultiLineString"}},{"type":"Feature","properties":{"Name":"Rotunda 2"},"geometry":{"coordinates":[125.48523690566878,7.08611416572559],"type":"Point"}},{"type":"Feature","properties":{"Name":"Kanto Library"},"geometry":{"coordinates":[125.4839409744963,7.0842665908992615],"type":"Point"}},{"type":"Feature","properties":{"Name":"Sports Complex Intersection"},"geometry":{"coordinates":[125.47224169657528,7.084627344962769],"type":"Point"}},{"type":"Feature","properties":{"Name":"CARIM Intersection"},"geometry":{"coordinates":[125.48011096612078,7.084367750188733],"type":"Point"}},{"type":"Feature","properties":{"Name":"School of Management Building"},"geometry":{"coordinates":[125.48435171061033,7.086779707231997],"type":"Point"}},{"type":"Feature","properties":{"Name":"Cultural Complex Center"},"geometry":{"coordinates":[125.48137998981645,7.086523257810086],"type":"Point"}},{"type":"Feature","properties":{"Name":"CARIM Building"},"geometry":{"coordinates":[125.47930172475401,7.084393290441412],"type":"Point"}},{"type":"Feature","properties":{"Name":"CSM Building"},"geometry":{"coordinates":[125.4777001458267,7.084427700370682],"type":"Point"}},{"type":"Feature","properties":{"Name":"Aquatics Center"},"geometry":{"coordinates":[125.47223347082996,7.084133200960139],"type":"Point"}},{"type":"Feature","properties":{"Name":"Training Gym"},"geometry":{"coordinates":[125.47176049378822,7.086374291148488],"type":"Point"}},{"type":"Feature","properties":{"Name":"Sports Complex Stadium"},"geometry":{"coordinates":[125.4712780775547,7.086243460461333],"type":"Point"}},{"type":"Feature","properties":{"Name":"Admin Court"},"geometry":{"coordinates":[125.4855541599054,7.085001809016092],"type":"Point"}},{"type":"Feature","properties":{"Name":"Kalimudan / Student Center Lane"},"geometry":{"coordinates":[125.4866402799002,7.084769332944106],"type":"Point"}},{"type":"Feature","properties":{"Name":"Library"},"geometry":{"coordinates":[125.48394344901857,7.084820580782321],"type":"Point"}},{"type":"Feature","properties":{"Name":"CHSS - Admin Building"},"geometry":{"coordinates":[125.4850395789772,7.085730473401242],"type":"Point"}}]}